{
  "file": "./models/stations.json",
  "stations": [
    {
      "name": "Tramore",
      "latitude": 52.16,
      "longitude": -7.152,
      "userid": "39d512fd-c427-463c-bfd4-2f99055ae270",
      "_id": "01"
    },
    {
      "name": "Dunmore",
      "latitude": 54.84,
      "longitude": -8.49,
      "userid": "39d512fd-c427-463c-bfd4-2f99055ae270",
      "_id": "05"
    },
    {
      "name": "Malahide",
      "latitude": 53.45,
      "longitude": -6.2,
      "userid": "39d512fd-c427-463c-bfd4-2f99055ae270",
      "_id": "12a29dc3-0b6e-4ba0-9817-63e281ff8010"
    },
    {
      "name": "Howth ",
      "latitude": 53.378569,
      "longitude": -6.057013,
      "userid": "39d512fd-c427-463c-bfd4-2f99055ae270",
      "_id": "9400cc7e-e29a-4796-b99c-63137e477860"
    },
    {
      "name": "Nantes",
      "latitude": 47.218102,
      "longitude": -1.5528,
      "userid": "39d512fd-c427-463c-bfd4-2f99055ae270",
      "_id": "348cff6a-ab5f-4f51-aab3-0f664b08c267"
    },
    {
      "name": "Kilkenny",
      "latitude": 52.577696,
      "longitude": -7.218002,
      "userid": "7dedb76d-2a1e-4fa5-8b03-c58d0887c7d0",
      "_id": "81ce9ce4-8fca-43ec-9699-601d77d743fc"
    }
  ]
}